[
  {
    "dateTime": "2024-01-15T20:00:00",
    "city": "Bloomington",
    "state": "IL",
    "country": "USA",
    "shape": "Light",
    "duration": "2 minutes",
    "summary": "Bright stationary light observed west of town, then moved rapidly north.",
    "posted": "2024-01-16T08:30:00",
    "latitude": 40.4842,
    "longitude": -88.9937
  },
  {
    "dateTime": "2023-12-10T23:15:00",
    "city": "Normal",
    "state": "IL",
    "country": "USA",
    "shape": "Triangle",
    "duration": "45 seconds",
    "summary": "Dark triangular craft, silent, passed overhead moving southwest.",
    "posted": "2023-12-11T09:00:00",
    "latitude": 40.5142,
    "longitude": -88.9906
  },
  {
    "dateTime": "2024-03-05T19:45:00",
    "city": "Peoria",
    "state": "IL",
    "country": "USA",
    "shape": "Circle",
    "duration": "1 minute",
    "summary": "Glowing orange circle hovered near the river before fading.",
    "posted": "2024-03-06T11:20:00",
    "latitude": 40.6936,
    "longitude": -89.5890
  },
  {
    "dateTime": "2023-11-20T04:30:00",
    "city": "Chicago",
    "state": "IL",
    "country": "USA",
    "shape": "Formation",
    "duration": "10 minutes",
    "summary": "Multiple lights in a V formation flew silently over Lake Michigan.",
    "posted": "2023-11-20T14:00:00",
    "latitude": 41.8781,
    "longitude": -87.6298
  },
  {
    "dateTime": "2024-02-28T21:00:00",
    "city": "Springfield",
    "state": "IL",
    "country": "USA",
    "shape": "Disk",
    "duration": "30 seconds",
    "summary": "Metallic disk seen reflecting moonlight, moved erratically.",
    "posted": "2024-02-29T07:45:00",
    "latitude": 39.7817,
    "longitude": -89.6501
  },
  {
    "dateTime": "2023-10-26T18:30:00",
    "city": "Los Angeles",
    "state": "CA",
    "country": "USA",
    "shape": "Light",
    "duration": "5 minutes",
    "summary": "Bright light moving erratically then vanished over the hills.",
    "posted": "2023-10-27T10:00:00",
    "latitude": 34.0522,
    "longitude": -118.2437
  },
  {
    "dateTime": "2023-09-15T05:45:00",
    "city": "Austin",
    "state": "TX",
    "country": "USA",
    "shape": "Circle",
    "duration": "30 seconds",
    "summary": "Glowing orb ascended rapidly into the clouds.",
    "posted": "2023-09-15T12:00:00",
    "latitude": 30.2672,
    "longitude": -97.7431
  },
  {
    "dateTime": "2024-01-01T12:00:00",
    "city": "New York",
    "state": "NY",
    "country": "USA",
    "shape": "Sphere",
    "duration": "1 hour",
    "summary": "Metallic sphere observed stationary high above Central Park.",
    "posted": "2024-01-01T15:30:00",
    "latitude": 40.7128,
    "longitude": -74.0060
  },
  {
    "dateTime": "2023-08-08T22:30:00",
    "city": "Seattle",
    "state": "WA",
    "country": "USA",
    "shape": "Fireball",
    "duration": "15 seconds",
    "summary": "Green fireball streaked across the sky, no sound.",
    "posted": "2023-08-09T06:00:00",
    "latitude": 47.6062,
    "longitude": -122.3321
  },
  {
    "dateTime": "2024-04-01T14:00:00",
    "city": "Miami",
    "state": "FL",
    "country": "USA",
    "shape": "Cigar",
    "duration": "3 minutes",
    "summary": "Long, thin, cigar-shaped object moving slowly against the wind.",
    "posted": "2024-04-01T16:45:00",
    "latitude": 25.7617,
    "longitude": -80.1918
  },
  {
    "dateTime": "2023-07-04T21:50:00",
    "city": "Denver",
    "state": "CO",
    "country": "USA",
    "shape": "Unknown",
    "duration": "Several minutes",
    "summary": "Object maneuvering between fireworks, much faster than drones.",
    "posted": "2023-07-05T10:10:00",
    "latitude": 39.7392,
    "longitude": -104.9903
  },
  {
    "dateTime": "2024-02-14T09:20:00",
    "city": "Phoenix",
    "state": "AZ",
    "country": "USA",
    "shape": "Rectangle",
    "duration": "20 minutes",
    "summary": "Dark rectangle hovered silently before moving west.",
    "posted": "2024-02-14T11:00:00",
    "latitude": 33.4484,
    "longitude": -112.0740
  },
  {
    "dateTime": "2023-10-31T20:10:00",
    "city": "Salem",
    "state": "MA",
    "country": "USA",
    "shape": "Changing",
    "duration": "5 minutes",
    "summary": "Light changed shape from orb to diamond.",
    "posted": "2023-11-01T09:30:00",
    "latitude": 42.5195,
    "longitude": -70.8967
  },
  {
    "dateTime": "2024-03-17T13:00:00",
    "city": "Las Vegas",
    "state": "NV",
    "country": "USA",
    "shape": "Flash",
    "duration": "Instant",
    "summary": "Extremely bright flash seen in broad daylight, no source.",
    "posted": "2024-03-17T18:00:00",
    "latitude": 36.1699,
    "longitude": -115.1398
  },
  {
    "dateTime": "2023-09-01T01:00:00",
    "city": "Roswell",
    "state": "NM",
    "country": "USA",
    "shape": "Disk",
    "duration": "1 minute",
    "summary": "Classic saucer shape seen hovering low over the desert.",
    "posted": "2023-09-01T07:00:00",
    "latitude": 33.3943,
    "longitude": -104.5230
  },
  {
    "dateTime": "2024-01-25T17:55:00",
    "city": "Atlanta",
    "state": "GA",
    "country": "USA",
    "shape": "Oval",
    "duration": "4 minutes",
    "summary": "White oval object paced airplane before accelerating away.",
    "posted": "2024-01-26T10:00:00",
    "latitude": 33.7490,
    "longitude": -84.3880
  },
  {
    "dateTime": "2023-12-24T23:58:00",
    "city": "San Francisco",
    "state": "CA",
    "country": "USA",
    "shape": "Light",
    "duration": "1 hour",
    "summary": "Pulsating red light remained stationary over the bay.",
    "posted": "2023-12-25T11:00:00",
    "latitude": 37.7749,
    "longitude": -122.4194
  },
  {
    "dateTime": "2024-04-10T22:00:00",
    "city": "St. Louis",
    "state": "MO",
    "country": "USA",
    "shape": "Chevron",
    "duration": "2 minutes",
    "summary": "Boomerang-shaped craft with steady lights flew south.",
    "posted": "2024-04-11T09:15:00",
    "latitude": 38.6270,
    "longitude": -90.1994
  },
  {
    "dateTime": "2023-11-11T11:11:00",
    "city": "Portland",
    "state": "OR",
    "country": "USA",
    "shape": "Teardrop",
    "duration": "10 seconds",
    "summary": "Shiny teardrop object shot straight up.",
    "posted": "2023-11-11T13:00:00",
    "latitude": 45.5051,
    "longitude": -122.6750
  },
  {
    "dateTime": "2024-03-22T03:00:00",
    "city": "Detroit",
    "state": "MI",
    "country": "USA",
    "shape": "Formation",
    "duration": "15 minutes",
    "summary": "Three dim lights moving in perfect sync, no sound.",
    "posted": "2024-03-22T08:30:00",
    "latitude": 42.3314,
    "longitude": -83.0458
  },
  {
    "dateTime": "2023-10-01T16:30:00",
    "city": "Orlando",
    "state": "FL",
    "country": "USA",
    "shape": "Sphere",
    "duration": "unknown",
    "summary": "Small metallic sphere darted around near airport.",
    "posted": "2023-10-02T09:00:00",
    "latitude": 28.5383,
    "longitude": -81.3792
  },
  {
    "dateTime": "2024-02-02T00:00:00",
    "city": "Nashville",
    "state": "TN",
    "country": "USA",
    "shape": "Light",
    "duration": "Several hours",
    "summary": "Unusually bright 'star' that moved slowly across the sky.",
    "posted": "2024-02-02T10:00:00",
    "latitude": 36.1627,
    "longitude": -86.7816
  },
  {
    "dateTime": "2023-08-21T14:10:00",
    "city": "Area 51 (vicinity)",
    "state": "NV",
    "country": "USA",
    "shape": "Disk",
    "duration": "5 seconds",
    "summary": "Fast-moving disk seen at high altitude near restricted airspace.",
    "posted": "2023-08-22T11:00:00",
    "latitude": 37.2343,
    "longitude": -115.8067
  },
  {
    "dateTime": "2024-04-15T20:30:00",
    "city": "Champaign",
    "state": "IL",
    "country": "USA",
    "shape": "Other",
    "duration": "1 minute",
    "summary": "A shimmering, heat-haze like distortion moved above the trees.",
    "posted": "2024-04-16T09:00:00",
    "latitude": 40.1164,
    "longitude": -88.2434
  },
  {
    "dateTime": "2023-06-18T15:00:00",
    "city": "Indianapolis",
    "state": "IN",
    "country": "USA",
    "shape": "Diamond",
    "duration": "10 minutes",
    "summary": "Sharp-edged diamond shape hovered silently.",
    "posted": "2023-06-19T08:00:00",
    "latitude": 39.7684,
    "longitude": -86.1581
  }
]
